[
  {
    "id": "028",
    "lat": 33.8599,
    "lon": -118.6411,
    "name": "SANTA MONICA BAY, CA BUOY"
  },
  {
    "id": "029",
    "lat": 37.9415,
    "lon": -123.4645,
    "name": "POINT REYES, CA BUOY"
  },
  {
    "id": "036",
    "lat": 46.8568,
    "lon": -124.2433,
    "name": "GRAYS HARBOR, WA BUOY"
  },
  {
    "id": "045",
    "lat": 33.1808,
    "lon": -117.475,
    "name": "OCEANSIDE OFFSHORE, CA BUOY"
  },
  {
    "id": "067",
    "lat": 33.2255,
    "lon": -119.8915,
    "name": "SAN NICOLAS ISLAND, CA BUOY"
  },
  {
    "id": "071",
    "lat": 34.4515,
    "lon": -120.78,
    "name": "HARVEST, CA BUOY"
  },
  {
    "id": "076",
    "lat": 35.2038,
    "lon": -120.8593,
    "name": "DIABLO CANYON, CA BUOY"
  },
  {
    "id": "092",
    "lat": 33.6143,
    "lon": -118.3142,
    "name": "SAN PEDRO, CA BUOY"
  },
  {
    "id": "094",
    "lat": 40.2915,
    "lon": -124.7475,
    "name": "CAPE MENDOCINO, CA BUOY"
  },
  {
    "id": "098",
    "lat": 21.4145,
    "lon": -157.6814,
    "name": "MOKAPU POINT, HI BUOY"
  },
  {
    "id": "100",
    "lat": 32.93,
    "lon": -117.392,
    "name": "TORREY PINES OUTER, CA BUOY"
  },
  {
    "id": "103",
    "lat": 34.0222,
    "lon": -118.5783,
    "name": "TOPANGA NEARSHORE, CA BUOY"
  },
  {
    "id": "106",
    "lat": 21.6707,
    "lon": -158.1182,
    "name": "WAIMEA BAY, HI BUOY"
  },
  {
    "id": "121",
    "lat": 13.3555,
    "lon": 144.788,
    "name": "IPAN, GUAM BUOY"
  },
  {
    "id": "132",
    "lat": 30.7091,
    "lon": -81.2921,
    "name": "FERNANDINA BEACH, FL BUOY"
  },
  {
    "id": "134",
    "lat": 27.5514,
    "lon": -80.2172,
    "name": "FORT PIERCE, FL BUOY"
  },
  {
    "id": "139",
    "lat": 43.7707,
    "lon": -124.5534,
    "name": "UMPQUA OFFSHORE, OR BUOY"
  },
  {
    "id": "142",
    "lat": 37.7878,
    "lon": -122.6316,
    "name": "SAN FRANCISCO BAR, CA BUOY"
  },
  {
    "id": "143",
    "lat": 28.4,
    "lon": -80.5333,
    "name": "CAPE CANAVERAL NEARSHORE, FL BUOY"
  },
  {
    "id": "144",
    "lat": 27.3522,
    "lon": -84.275,
    "name": "ST. PETERSBURG OFFSHORE, FL BUOY"
  },
  {
    "id": "147",
    "lat": 36.9142,
    "lon": -75.7203,
    "name": "CAPE HENRY, VA BUOY"
  },
  {
    "id": "150",
    "lat": 34.1416,
    "lon": -77.7147,
    "name": "MASONBORO INLET, ILM2, NC BUOY"
  },
  {
    "id": "153",
    "lat": 32.9565,
    "lon": -117.2796,
    "name": "DEL MAR NEARSHORE, CA BUOY"
  },
  {
    "id": "154",
    "lat": 40.9672,
    "lon": -71.1236,
    "name": "BLOCK ISLAND, RI BUOY"
  },
  {
    "id": "155",
    "lat": 32.5697,
    "lon": -117.1689,
    "name": "IMPERIAL BEACH NEARSHORE, CA BUOY"
  },
  {
    "id": "156",
    "lat": 36.7592,
    "lon": -121.9503,
    "name": "MONTEREY CANYON OUTER, CA BUOY"
  },
  {
    "id": "157",
    "lat": 36.3416,
    "lon": -122.1096,
    "name": "POINT SUR, CA BUOY"
  },
  {
    "id": "158",
    "lat": 36.6263,
    "lon": -121.9071,
    "name": "CABRILLO POINT NEARSHORE, CA BUOY"
  },
  {
    "id": "160",
    "lat": 42.8,
    "lon": -70.169,
    "name": "JEFFREYS LEDGE, NH BUOY"
  },
  {
    "id": "162",
    "lat": 46.2151,
    "lon": -124.1286,
    "name": "CLATSOP SPIT, OR BUOY"
  },
  {
    "id": "166",
    "lat": 49.903,
    "lon": -145.2455,
    "name": "OCEAN STATION PAPA BUOY"
  },
  {
    "id": "168",
    "lat": 40.8956,
    "lon": -124.3581,
    "name": "HUMBOLDT BAY NORTH SPIT, CA BUOY"
  },
  {
    "id": "171",
    "lat": 36.6117,
    "lon": -74.8389,
    "name": "VIRGINIA BEACH OFFSHORE, VA BUOY"
  },
  {
    "id": "178",
    "lat": 7.0815,
    "lon": 158.2442,
    "name": "NORTH POINT, POHNPEI, MICRONESIA BUOY"
  },
  {
    "id": "179",
    "lat": 46.1334,
    "lon": -124.6443,
    "name": "ASTORIA CANYON, OR BUOY"
  },
  {
    "id": "181",
    "lat": 18.3765,
    "lon": -67.2798,
    "name": "RINCON, PUERTO RICO BUOY"
  },
  {
    "id": "187",
    "lat": 21.0185,
    "lon": -156.4215,
    "name": "PAUWELA, MAUI, HI BUOY"
  },
  {
    "id": "188",
    "lat": 19.779,
    "lon": -154.97,
    "name": "HILO, HAWAII, HI BUOY"
  },
  {
    "id": "189",
    "lat": -14.2724,
    "lon": -170.501,
    "name": "AUNUU, AMERICAN SAMOA BUOY"
  },
  {
    "id": "191",
    "lat": 32.5175,
    "lon": -117.4253,
    "name": "POINT LOMA SOUTH, CA BUOY"
  },
  {
    "id": "192",
    "lat": 35.7504,
    "lon": -75.33,
    "name": "OREGON INLET, NC BUOY"
  },
  {
    "id": "194",
    "lat": 29.9992,
    "lon": -81.0795,
    "name": "ST. AUGUSTINE, FL BUOY"
  },
  {
    "id": "200",
    "lat": 33.7186,
    "lon": -78.0164,
    "name": "WILMINGTON HARBOR, NC BUOY"
  },
  {
    "id": "201",
    "lat": 32.8678,
    "lon": -117.2667,
    "name": "SCRIPPS NEARSHORE, CA BUOY"
  },
  {
    "id": "202",
    "lat": 22.2847,
    "lon": -159.5742,
    "name": "HANALEI, KAUAI, HI BUOY"
  },
  {
    "id": "203",
    "lat": 33.7685,
    "lon": -119.563,
    "name": "SANTA CRUZ BASIN, CA BUOY"
  },
  {
    "id": "204",
    "lat": 59.598,
    "lon": -151.8285,
    "name": "LOWER COOK INLET, AK BUOY"
  },
  {
    "id": "209",
    "lat": 39.7719,
    "lon": -73.769,
    "name": "BARNEGAT, NJ BUOY"
  },
  {
    "id": "213",
    "lat": 33.5777,
    "lon": -118.182,
    "name": "SAN PEDRO SOUTH, CA BUOY"
  },
  {
    "id": "214",
    "lat": 27.59,
    "lon": -82.9311,
    "name": "EGMONT CHANNEL ENTRANCE, FL BUOY"
  },
  {
    "id": "215",
    "lat": 33.7003,
    "lon": -118.2007,
    "name": "LONG BEACH CHANNEL, CA BUOY"
  },
  {
    "id": "217",
    "lat": 34.2108,
    "lon": -76.9438,
    "name": "ONSLOW BAY OUTER, NC BUOY"
  },
  {
    "id": "220",
    "lat": 32.7494,
    "lon": -117.4985,
    "name": "MISSION BAY WEST, CA BUOY"
  },
  {
    "id": "221",
    "lat": 41.8483,
    "lon": -70.3299,
    "name": "CAPE COD BAY, MA BUOY"
  },
  {
    "id": "222",
    "lat": 34.774,
    "lon": -121.491,
    "name": "SANTA LUCIA ESCARPMENT, CA BUOY"
  },
  {
    "id": "225",
    "lat": 21.4774,
    "lon": -157.7568,
    "name": "KANEOHE BAY, WETS, HI BUOY"
  },
  {
    "id": "226",
    "lat": 25.7038,
    "lon": -83.6544,
    "name": "PULLEY RIDGE, FL BUOY"
  },
  {
    "id": "233",
    "lat": 21.2974,
    "lon": -157.9589,
    "name": "PEARL HARBOR ENTRANCE, HI BUOY"
  },
  {
    "id": "238",
    "lat": 21.3231,
    "lon": -158.1495,
    "name": "BARBERS POINT, KALAELOA, HI BUOY"
  },
  {
    "id": "239",
    "lat": 20.7496,
    "lon": -157.0015,
    "name": "KAUMALAPAU SOUTHWEST, LANAI, HI BUOY"
  },
  {
    "id": "243",
    "lat": 36.0015,
    "lon": -75.4209,
    "name": "NAGS HEAD, NC BUOY"
  },
  {
    "id": "244",
    "lat": 24.4075,
    "lon": -81.968,
    "name": "SATAN SHOAL, FL BUOY"
  },
  {
    "id": "250",
    "lat": 35.258,
    "lon": -75.2851,
    "name": "CAPE HATTERAS EAST, NC BUOY"
  },
  {
    "id": "256",
    "lat": 28.988,
    "lon": -89.6488,
    "name": "SOUTHWEST PASS ENTRANCE W, LA BUOY"
  },
  {
    "id": "260",
    "lat": 41.3871,
    "lon": -71.033,
    "name": "BUZZARDS BAY, MA BUOY"
  },
  {
    "id": "262",
    "lat": 33.0621,
    "lon": -117.3141,
    "name": "LEUCADIA NEARSHORE, CA BUOY"
  },
  {
    "id": "263",
    "lat": 38.5368,
    "lon": -75.044,
    "name": "BETHANY BEACH, DE BUOY"
  },
  {
    "id": "264",
    "lat": 33.2908,
    "lon": -117.5015,
    "name": "RED BEACH NEARSHORE, CA BUOY"
  },
  {
    "id": "270",
    "lat": 45.5615,
    "lon": -123.9903,
    "name": "TILLAMOOK BAY SOUTH JETTY, OR BUOY"
  },
  {
    "id": "271",
    "lat": 33.3364,
    "lon": -117.6586,
    "name": "GREEN BEACH OFFSHORE, CA BUOY"
  },
  {
    "id": "273",
    "lat": -14.2965,
    "lon": -170.8747,
    "name": "KING-POLOA, AMERICAN SAMOA BUOY"
  },
  {
    "id": "277",
    "lat": 44.5752,
    "lon": -124.2324,
    "name": "NEWPORT PWS NORTH, OR BUOY"
  },
  {
    "id": "278",
    "lat": 44.5585,
    "lon": -124.2326,
    "name": "NEWPORT PWS SOUTH, OR BUOY"
  },
  {
    "id": "279",
    "lat": 29.5786,
    "lon": -88.6431,
    "name": "CHANDELEUR ISLANDS SE, LA BUOY"
  },
  {
    "id": "280",
    "lat": 44.5667,
    "lon": -124.2375,
    "name": "YAQUINA CHANNEL SW, OR BUOY"
  },
  {
    "id": "284",
    "lat": 33.4452,
    "lon": -117.6801,
    "name": "CAPISTRANO BEACH NEARSHORE, CA BUOY"
  },
  {
    "id": "430",
    "lat": 36.2572,
    "lon": -75.5933,
    "name": "DUCK FRF 26M, NC BUOY"
  },
  {
    "id": "433",
    "lat": 36.1997,
    "lon": -75.7143,
    "name": "DUCK FRF 17M, NC BUOY"
  }
]